var hotel =
{
    "type":"FeatureCollection",
    "generator":"JOSM",
    "features":[
        {
            "type":"Feature",
            "properties":{
                "name":"Hospedaje La Selecta",
                "tourism":"hotel",
                 image:"http://www.turismoinnova.es/wp-content/uploads/2012/03/hotel-mandarin-oriental.jpg"
            },
            "geometry":{
                "type":"Point",
                "coordinates":[
                    -74.2231885,
                    -13.1640983
                ]
            }
        },
        {
            "type":"Feature",
            "properties":{
                "name":"Hospedaje Mi Cielo",
                "tourism":"hotel"
            },
            "geometry":{
                "type":"Point",
                "coordinates":[
                    -74.2116028,
                    -13.1680595
                ]
            }
        },
        {
            "type":"Feature",
            "properties":{
                "name":"Hospedaje Amancer",
                "tourism":"hotel",
                "addr:street":"Jr. El Sol"

            },
            "geometry":{
                "type":"Point",
                "coordinates":[
                    -74.2234503,
                    -13.1636468
                ]
            }
        },
        {
            "type":"Feature",
            "properties":{
                "name":"Hospedaje Wari",
                "tourism":"hotel"
            },
            "geometry":{
                "type":"Point",
                "coordinates":[
                    -74.2288386,
                    -13.1346735
                ]
            }
        },
        {
            "type":"Feature",
            "properties":{
                "name":"San Francisco de Paula",
                "tourism":"hotel"
            },
            "geometry":{
                "type":"Point",
                "coordinates":[
                    -74.2284681,
                    -13.1591503
                ]
            }
        },
        {
            "type":"Feature",
            "properties":{
                "name":"Hospedaje El Profe",
                "tourism":"hotel"
            },
            "geometry":{
                "type":"Point",
                "coordinates":[
                    -74.2197745,
                    -13.1642292
                ]
            }
        },
        {
            "type":"Feature",
            "properties":{
                "name":"Hospedaje Cruzero",
                "tourism":"hotel"
            },
            "geometry":{
                "type":"Point",
                "coordinates":[
                    -74.2247203,
                    -13.1586882
                ]
            }
        },
        {
            "type":"Feature",
            "properties":{
                "name":"Hospedaje Karol",
                "tourism":"hotel"
            },
            "geometry":{
                "type":"Point",
                "coordinates":[
                    -74.2289647,
                    -13.1604515
                ]
            }
        },
        {
            "type":"Feature",
            "properties":{
                "name":"Santa Maria Hotel",
                "tourism":"hotel",
                "addr:street":"Jr. Arequipa"
            },
            "geometry":{
                "type":"Point",
                "coordinates":[
                    -74.2228537,
                    -13.1617186
                ]
            }
        },
        {
            "type":"Feature",
            "properties":{
                "name":"Hospedaje Terminal",
                "tourism":"hotel"
            },
            "geometry":{
                "type":"Point",
                "coordinates":[
                    -74.229917,
                    -13.1347378
                ]
            }
        },
        {
            "type":"Feature",
            "properties":{
                "tourism":"hotel"
            },
            "geometry":{
                "type":"Point",
                "coordinates":[
                    -74.2289025,
                    -13.1381565
                ]
            }
        },
        {
            "type":"Feature",
            "properties":{
                "name":"Hotel Rivera",
                "tourism":"hotel"
            },
            "geometry":{
                "type":"Point",
                "coordinates":[
                    -74.2287861,
                    -13.1590914
                ]
            }
        },
        {
            "type":"Feature",
            "properties":{
                "tourism":"hotel"
            },
            "geometry":{
                "type":"Point",
                "coordinates":[
                    -74.2290953,
                    -13.1360049
                ]
            }
        },
        {
            "type":"Feature",
            "properties":{
                "name":"Hotel La Reserva",
                "tourism":"hotel",
                "addr:street":"Jr. Quinua"
            },
            "geometry":{
                "type":"Point",
                "coordinates":[
                    -74.2263665,
                    -13.1544769
                ]
            }
        },
        {
            "type":"Feature",
            "properties":{
                "name":"Hospedaje Ñaño",
                "tourism":"hotel"
            },
            "geometry":{
                "type":"Point",
                "coordinates":[
                    -74.2233567,
                    -13.1641266
                ]
            }
        },
        {
            "type":"Feature",
            "properties":{
                "name":"Hotel Las Terrazas",
                "tourism":"hotel"
            },
            "geometry":{
                "type":"Point",
                "coordinates":[
                    -74.2093687,
                    -13.1687064
                ]
            }
        },
        {
            "type":"Feature",
            "properties":{
                "name":"Hotel Sol de Ayacucho",
                "tourism":"hotel"
            },
            "geometry":{
                "type":"Point",
                "coordinates":[
                    -74.2257709,
                    -13.1501693
                ]
            }
        },
        {
            "type":"Feature",
            "properties":{
                "name":"Hotel Sierra Dorada",
                "tourism":"hotel"
            },
            "geometry":{
                "type":"Point",
                "coordinates":[
                    -74.2256905,
                    -13.1490741
                ]
            }
        },
        {
            "type":"Feature",
            "properties":{
                "name":"Hotel Malibu",
                "tourism":"hotel"
            },
            "geometry":{
                "type":"Point",
                "coordinates":[
                    -74.2086508,
                    -13.1698239
                ]
            }
        },
        {
            "type":"Feature",
            "properties":{
                "name":"La Colmena",
                "tourism":"hotel"
            },
            "geometry":{
                "type":"Point",
                "coordinates":[
                    -74.2245367,
                    -13.1602605
                ]
            }
        },
        {
            "type":"Feature",
            "properties":{
                "name":"Hostal Cumana",
                "tourism":"hotel"
            },
            "geometry":{
                "type":"Point",
                "coordinates":[
                    -74.2214007,
                    -13.1537337
                ]
            }
        },
        {
            "type":"Feature",
            "properties":{
                "name":"Hospedaje Venus",
                "tourism":"hotel"
            },
            "geometry":{
                "type":"Point",
                "coordinates":[
                    -74.2253495,
                    -13.1471544
                ]
            }
        },
        {
            "type":"Feature",
            "properties":{
                "name":"Hotel Plaza",
                "tourism":"hotel"
            },
            "geometry":{
                "type":"Point",
                "coordinates":[
                    -74.2259472,
                    -13.1587086
                ]
            }
        },
        {
            "type":"Feature",
            "properties":{
                "name":"El imperio 2",
                "tourism":"hotel"
            },
            "geometry":{
                "type":"Point",
                "coordinates":[
                    -74.223703,
                    -13.1645201
                ]
            }
        },
        {
            "type":"Feature",
            "properties":{
                "name":"Restaurant Hotel Los Alamos",
                "tourism":"hotel"
            },
            "geometry":{
                "type":"Point",
                "coordinates":[
                    -74.2237761,
                    -13.1601679
                ]
            }
        },
        {
            "type":"Feature",
            "properties":{
                "internet_access":"yes",
                "name":"Tinoco Apart Hotel",
                "tourism":"hotel",
                "addr:street":"Jr. Tres Mascaras",
                "addr:housenumber":"152"
            },
            "geometry":{
                "type":"Point",
                "coordinates":[
                    -74.2245399,
                    -13.1632182
                ]
            }
        },
        {
            "type":"Feature",
            "properties":{
                "name":"Hotel Los Libertadores",
                "tourism":"hotel"
            },
            "geometry":{
                "type":"Point",
                "coordinates":[
                    -74.2293054,
                    -13.1620173
                ]
            }
        },
        {
            "type":"Feature",
            "properties":{
                "name":"Hospedaje Bellido",
                "tourism":"hotel",
                "addr:street":"Jr. Quinua"
            },
            "geometry":{
                "type":"Point",
                "coordinates":[
                    -74.2270808,
                    -13.158266
                ]
            }
        },
        {
            "type":"Feature",
            "properties":{
                "name":"Hospedaje Asamblea",
                "tourism":"hotel"
            },
            "geometry":{
                "type":"Point",
                "coordinates":[
                    -74.2250377,
                    -13.1594523
                ]
            }
        },
        {
            "type":"Feature",
            "properties":{
                "name":"Hotel Rafaela",
                "tourism":"hotel"
            },
            "geometry":{
                "type":"Point",
                "coordinates":[
                    -74.227681,
                    -13.1568451
                ]
            }
        },
        {
            "type":"Feature",
            "properties":{
                "name":"Hotel Kankun",
                "tourism":"hotel"
            },
            "geometry":{
                "type":"Point",
                "coordinates":[
                    -74.2110548,
                    -13.1694327
                ]
            }
        },
        {
            "type":"Feature",
            "properties":{
                "name":"Hospedaje",
                "tourism":"hotel"
            },
            "geometry":{
                "type":"Point",
                "coordinates":[
                    -74.2107045,
                    -13.1695061
                ]
            }
        },
        {
            "type":"Feature",
            "properties":{
                "name":"Hotel Colonial",
                "tourism":"hotel"
            },
            "geometry":{
                "type":"Point",
                "coordinates":[
                    -74.2293393,
                    -13.1622515
                ]
            }
        },
        {
            "type":"Feature",
            "properties":{
                "name":"Hotel Yañes",
                "tourism":"hotel"
            },
            "geometry":{
                "type":"Point",
                "coordinates":[
                    -74.2270436,
                    -13.1570128
                ]
            }
        },
        {
            "type":"Feature",
            "properties":{
                "tourism":"hotel"
            },
            "geometry":{
                "type":"Point",
                "coordinates":[
                    -74.2305814,
                    -13.1586884
                ]
            }
        },
        {
            "type":"Feature",
            "properties":{
                "name":"Hotel Conde Duque",
                "tourism":"hotel"
            },
            "geometry":{
                "type":"Point",
                "coordinates":[
                    -74.2249911,
                    -13.1592613
                ]
            }
        },
        {
            "type":"Feature",
            "properties":{
                "name":"El Libertador",
                "tourism":"hotel"
            },
            "geometry":{
                "type":"Point",
                "coordinates":[
                    -74.2275579,
                    -13.1618831
                ]
            }
        },
        {
            "type":"Feature",
            "properties":{
                "name":"Ronda",
                "tourism":"hotel"
            },
            "geometry":{
                "type":"Point",
                "coordinates":[
                    -74.2226248,
                    -13.1605443
                ]
            }
        },
        {
            "type":"Feature",
            "properties":{
                "name":"Hotel Las Americas",
                "tourism":"hotel"
            },
            "geometry":{
                "type":"Point",
                "coordinates":[
                    -74.2246384,
                    -13.1583062
                ]
            }
        },
        {
            "type":"Feature",
            "properties":{
                "name":"Hotel Santa Rosa",
                "tourism":"hotel"
            },
            "geometry":{
                "type":"Point",
                "coordinates":[
                    -74.2276217,
                    -13.1607271
                ]
            }
        }
    ]
}
